{"response": [
	{
		"title": "MLP Pruszków I Sp. z o.o. | Pruszków",
		"lat": 52.17573275,
		"lon": 20.81332120,
		"zoom": 16,
		"rotation": 27.73497688751926
	},
	{
		"title": "MLP Pruszków II Sp. z o.o. | Moszna Parcela",
		"lat": 52.1753594,
		"lon": 20.7483727,
		"zoom": 17,
		"rotation": "0"
	},
	{
		"title": "MLP Tychy",
		"lat": 50.1055519,
		"lon": 19.0701196,
		"zoom": 15,
		"rotation": ""
	},
	{
		"title": "MLP Bieruń",
		"lat": 50.1005559,
		"lon": 19.109033,
		"zoom": 16,
		"rotation": ""
	},
	{
		"title": "MLP Poznań",
		"lat": 52.3158671,
		"lon": 17.0181806,
		"zoom": 17,
		"rotation": ""
	},
	{
		"title": "MLP Wrocław",
		"lat": 51.0470996,
		"lon": 16.9013423,
		"zoom": 14,
		"rotation": ""
	},
	{
		"title": "MLP Lublin",
		"lat": 51.2297747,
		"lon": 22.6395996,
		"zoom": 15,
		"rotation": ""
	}
]}